City_ID,City,Lat,Lng,Max Temp,Humidity,Cloudiness,Wind Speed,Country,Date
0,port elizabeth,-33.918,25.5701,18.94,60,20,3.6,ZA,Sun Oct  1 10:34:47 2023
1,hawaiian paradise park,19.5933,-154.9731,22.24,97,100,2.06,US,Sun Oct  1 10:34:47 2023
2,petropavlovsk-kamchatsky,53.0452,158.6483,6.36,91,100,2.0,RU,Sun Oct  1 10:30:36 2023
3,san luis,-33.295,-66.3356,21.83,28,0,7.72,AR,Sun Oct  1 10:34:48 2023
4,arraial do cabo,-22.9661,-42.0278,21.92,83,100,4.12,BR,Sun Oct  1 10:34:48 2023
5,ust-nera,64.5667,143.2,-1.98,61,37,3.45,RU,Sun Oct  1 10:32:24 2023
6,ribeira grande,38.5167,-28.7,22.65,68,40,3.58,PT,Sun Oct  1 10:34:48 2023
7,siwa oasis,29.2041,25.5195,30.31,28,100,4.65,EG,Sun Oct  1 10:34:48 2023
8,padang,-0.9492,100.3543,27.03,90,78,1.79,ID,Sun Oct  1 10:34:49 2023
9,waitangi,-43.9535,-176.5597,11.57,86,55,3.58,NZ,Sun Oct  1 10:34:49 2023
10,west island,-12.1568,96.8225,25.99,73,75,8.23,CC,Sun Oct  1 10:34:49 2023
11,timmins,48.4669,-81.3331,13.9,94,100,2.06,CA,Sun Oct  1 10:34:49 2023
12,san patricio,28.017,-97.5169,31.03,67,8,5.83,US,Sun Oct  1 10:34:49 2023
13,hadibu,12.65,54.0333,27.64,80,72,0.91,YE,Sun Oct  1 10:34:50 2023
14,jamestown,42.097,-79.2353,19.2,100,75,0.0,US,Sun Oct  1 10:30:08 2023
15,avarua,-21.2078,-159.775,24.03,100,75,2.57,CK,Sun Oct  1 10:34:50 2023
16,bodesti,47.0333,26.4167,19.65,46,100,4.38,RO,Sun Oct  1 10:34:50 2023
17,port-aux-francais,-49.35,70.2167,6.08,97,100,17.07,TF,Sun Oct  1 10:34:50 2023
18,east london,-33.0153,27.9116,18.52,63,20,4.12,ZA,Sun Oct  1 10:34:51 2023
19,blackmans bay,-43.0167,147.3167,6.4,81,7,2.74,AU,Sun Oct  1 10:34:51 2023
20,mount pearl,47.5166,-52.7813,18.58,57,75,6.69,CA,Sun Oct  1 10:34:51 2023
21,naracoorte,-36.9579,140.7383,5.03,88,0,2.95,AU,Sun Oct  1 10:34:51 2023
22,adamstown,-25.066,-130.1015,20.53,81,47,10.72,PN,Sun Oct  1 10:34:51 2023
23,aasiaat,68.7098,-52.8699,-3.15,69,3,5.33,GL,Sun Oct  1 10:34:51 2023
24,enewetak,11.3474,162.3373,29.06,75,96,6.62,MH,Sun Oct  1 10:34:52 2023
25,iqaluit,63.7506,-68.5145,3.85,86,20,1.54,CA,Sun Oct  1 10:34:52 2023
26,carutapera,-1.195,-46.02,31.54,57,64,5.55,BR,Sun Oct  1 10:34:52 2023
27,salekhard,66.53,66.6019,5.59,95,99,4.02,RU,Sun Oct  1 10:34:52 2023
28,st. john's,47.5649,-52.7093,19.04,58,75,6.69,CA,Sun Oct  1 10:30:04 2023
29,sinmak,38.4167,126.2333,11.72,64,0,1.62,KP,Sun Oct  1 10:34:52 2023
30,udachny,66.4167,112.4,-0.86,92,100,7.03,RU,Sun Oct  1 10:34:53 2023
31,new norfolk,-42.7826,147.0587,7.06,90,8,1.08,AU,Sun Oct  1 10:34:53 2023
32,show low,34.2542,-110.0298,14.49,49,0,10.8,US,Sun Oct  1 10:34:53 2023
33,yellowknife,62.456,-114.3525,7.45,95,100,5.66,CA,Sun Oct  1 10:33:13 2023
34,pimentel,-6.8367,-79.9342,23.16,68,75,5.66,PE,Sun Oct  1 10:34:53 2023
35,bredasdorp,-34.5322,20.0403,15.45,67,0,7.34,ZA,Sun Oct  1 10:34:53 2023
36,badger,64.8,-147.5333,2.95,76,100,3.09,US,Sun Oct  1 10:34:54 2023
37,puerto natales,-51.7236,-72.4875,3.55,73,80,6.2,CL,Sun Oct  1 10:34:54 2023
38,bethel,41.3712,-73.414,20.36,77,0,4.63,US,Sun Oct  1 10:30:05 2023
39,grytviken,-54.2811,-36.5092,4.87,91,69,4.76,GS,Sun Oct  1 10:34:54 2023
40,puerto ayora,-0.7393,-90.3518,25.98,91,100,2.24,EC,Sun Oct  1 10:31:23 2023
41,campbell river,50.0163,-125.2446,8.03,100,20,2.06,CA,Sun Oct  1 10:34:54 2023
42,invercargill,-46.4,168.35,15.57,64,100,5.81,NZ,Sun Oct  1 10:34:55 2023
43,al ghayzah,16.2079,52.176,27.67,77,39,3.25,YE,Sun Oct  1 10:34:55 2023
44,belmonte,-15.8631,-38.8828,26.39,63,22,3.59,BR,Sun Oct  1 10:34:55 2023
45,betio village,1.358,172.9211,28.02,74,2,3.3,KI,Sun Oct  1 10:34:55 2023
46,olonkinbyen,70.9221,-8.7187,0.45,72,100,4.32,SJ,Sun Oct  1 10:34:55 2023
47,quellon,-43.1167,-73.6167,6.07,89,100,2.56,CL,Sun Oct  1 10:31:19 2023
48,luderitz,-26.6481,15.1594,20.08,59,0,7.11,NA,Sun Oct  1 10:34:56 2023
49,edinburgh of the seven seas,-37.0676,-12.3116,9.46,63,97,12.18,SH,Sun Oct  1 10:34:56 2023
50,san antonio de pale,-1.4014,5.6325,25.51,81,65,5.87,GQ,Sun Oct  1 10:34:56 2023
51,praia da vitoria,38.7333,-27.0667,23.2,73,20,3.97,PT,Sun Oct  1 10:34:56 2023
52,catu,-12.3531,-38.3789,25.68,79,98,1.95,BR,Sun Oct  1 10:34:56 2023
53,anadyr,64.75,177.4833,-3.72,86,0,4.0,RU,Sun Oct  1 10:34:56 2023
54,college,64.8569,-147.8028,2.99,75,100,3.09,US,Sun Oct  1 10:32:23 2023
55,constantia,44.1833,28.65,25.39,49,16,2.7,RO,Sun Oct  1 10:34:57 2023
56,dhidhdhoo,6.8833,73.1,27.6,79,100,6.1,MV,Sun Oct  1 10:34:57 2023
57,bubaque,11.2833,-15.8333,28.13,77,100,1.56,GW,Sun Oct  1 10:34:57 2023
58,wailua homesteads,22.0669,-159.378,24.44,85,20,6.69,US,Sun Oct  1 10:34:57 2023
59,callao,-12.0667,-77.15,22.07,77,75,3.6,PE,Sun Oct  1 10:34:57 2023
60,talnakh,69.4865,88.3972,-12.66,90,10,1.91,RU,Sun Oct  1 10:33:21 2023
61,atafu village,-8.5421,-172.5159,28.37,70,82,0.75,TK,Sun Oct  1 10:34:58 2023
62,codrington,-38.2667,141.9667,5.63,91,0,3.56,AU,Sun Oct  1 10:34:58 2023
63,hamilton,39.1834,-84.5333,23.76,80,0,2.06,US,Sun Oct  1 10:34:32 2023
64,safford,32.834,-109.7076,24.51,32,0,3.6,US,Sun Oct  1 10:34:58 2023
65,chingola,-12.529,27.8838,33.71,16,95,2.07,ZM,Sun Oct  1 10:34:59 2023
66,whitehorse,60.7161,-135.0538,4.43,90,100,7.72,CA,Sun Oct  1 10:34:59 2023
67,georgetown,5.4112,100.3354,28.97,82,20,1.54,MY,Sun Oct  1 10:33:25 2023
68,isafjordur,66.0755,-23.124,8.02,76,75,4.63,IS,Sun Oct  1 10:34:59 2023
69,tazacorte,28.629,-17.9293,27.86,79,0,3.09,ES,Sun Oct  1 10:34:59 2023
70,palembang,-2.9167,104.7458,29.05,70,40,4.63,ID,Sun Oct  1 10:34:59 2023
71,nyurba,63.2842,118.3319,6.13,81,99,0.45,RU,Sun Oct  1 10:35:00 2023
72,terrigal,-33.45,151.45,18.89,72,15,6.6,AU,Sun Oct  1 10:35:00 2023
73,kyparissia,37.2511,21.6736,26.63,63,6,2.23,GR,Sun Oct  1 10:35:00 2023
74,acapulco de juarez,16.8634,-99.8901,27.9,89,75,3.09,MX,Sun Oct  1 10:32:18 2023
75,alakurtti,66.9672,30.3491,7.06,82,52,4.11,RU,Sun Oct  1 10:35:00 2023
76,hermanus,-34.4187,19.2345,18.94,57,0,5.33,ZA,Sun Oct  1 10:35:00 2023
77,wenxing,28.6667,112.8833,22.31,82,100,2.81,CN,Sun Oct  1 10:35:01 2023
78,saint-philippe,-21.3585,55.7679,24.77,75,9,3.82,RE,Sun Oct  1 10:35:01 2023
79,maragogi,-9.0122,-35.2225,27.1,63,57,4.31,BR,Sun Oct  1 10:35:01 2023
80,iskateley,67.6803,53.1512,10.57,98,100,4.02,RU,Sun Oct  1 10:35:01 2023
81,nova sintra,14.8667,-24.7167,24.47,77,51,7.15,CV,Sun Oct  1 10:35:01 2023
82,port lincoln,-34.7333,135.8667,12.44,78,0,1.94,AU,Sun Oct  1 10:35:01 2023
83,lebu,-37.6167,-73.65,11.84,73,100,4.29,CL,Sun Oct  1 10:35:02 2023
84,kristiansund,63.1115,7.732,13.03,82,75,3.09,NO,Sun Oct  1 10:35:02 2023
85,arica,-18.475,-70.3042,21.75,68,0,4.12,CL,Sun Oct  1 10:35:02 2023
86,isangel,-19.55,169.2667,21.22,76,89,8.17,VU,Sun Oct  1 10:35:02 2023
87,ushuaia,-54.8,-68.3,6.81,53,75,6.17,AR,Sun Oct  1 10:33:01 2023
88,vila franca do campo,37.7167,-25.4333,22.71,99,97,3.47,PT,Sun Oct  1 10:35:03 2023
89,westport,41.1415,-73.3579,21.06,79,0,3.6,US,Sun Oct  1 10:34:01 2023
90,laguna,38.421,-121.4238,15.38,92,0,2.06,US,Sun Oct  1 10:31:11 2023
91,hirson,49.9226,4.0826,24.7,55,13,2.84,FR,Sun Oct  1 10:35:04 2023
92,sur,22.5667,59.5289,30.42,52,27,1.35,OM,Sun Oct  1 10:35:04 2023
93,klyuchi,52.2667,79.1667,7.99,80,0,2.77,RU,Sun Oct  1 10:35:04 2023
94,lata,40.1629,-8.3327,33.84,43,12,2.53,PT,Sun Oct  1 10:35:04 2023
95,muana,-1.5283,-49.2167,34.94,43,74,2.61,BR,Sun Oct  1 10:35:04 2023
96,fortuna,40.5982,-124.1573,9.51,98,100,0.0,US,Sun Oct  1 10:30:53 2023
97,naze,28.3667,129.4833,24.51,78,26,5.96,JP,Sun Oct  1 10:35:05 2023
98,kertih,4.5141,103.4483,25.05,100,90,0.0,MY,Sun Oct  1 10:35:05 2023
99,ikalamavony,-21.15,46.5833,28.06,31,48,0.97,MG,Sun Oct  1 10:35:05 2023
100,empangeni,-28.762,31.8933,17.77,67,100,3.57,ZA,Sun Oct  1 10:35:05 2023
101,port mathurin,-19.6833,63.4167,23.01,82,89,8.89,MU,Sun Oct  1 10:35:06 2023
102,ola,59.5833,151.2833,8.01,88,100,0.35,RU,Sun Oct  1 10:35:06 2023
103,amahai,-3.3333,128.9167,25.3,87,70,0.47,ID,Sun Oct  1 10:35:06 2023
104,arar,30.9753,41.0381,34.01,13,0,0.0,SA,Sun Oct  1 10:35:06 2023
105,sosnovka,56.255,51.2842,16.23,57,11,5.19,RU,Sun Oct  1 10:35:06 2023
106,saipan,15.1355,145.701,28.39,89,40,3.6,MP,Sun Oct  1 10:35:07 2023
107,zarnesti,45.3,26.8667,22.82,37,78,4.84,RO,Sun Oct  1 10:35:07 2023
108,botou,38.0667,116.5667,17.33,41,96,2.1,CN,Sun Oct  1 10:35:07 2023
109,tiksi,71.6872,128.8694,-7.35,91,55,3.15,RU,Sun Oct  1 10:35:07 2023
110,vila velha,-20.3297,-40.2925,24.97,77,100,3.6,BR,Sun Oct  1 10:35:07 2023
111,qaqortoq,60.7167,-46.0333,3.09,79,99,2.47,GL,Sun Oct  1 10:35:08 2023
112,vorgashor,67.5833,63.95,7.34,98,100,5.9,RU,Sun Oct  1 10:35:08 2023
113,tutoia,-2.7619,-42.2744,30.5,58,60,7.06,BR,Sun Oct  1 10:35:08 2023
114,mermoz boabab,14.7065,-17.4758,32.31,75,99,2.14,SN,Sun Oct  1 10:35:08 2023
115,touros,-5.1989,-35.4608,29.68,53,43,7.6,BR,Sun Oct  1 10:33:04 2023
116,thompson,55.7435,-97.8558,4.09,93,100,3.09,CA,Sun Oct  1 10:35:09 2023
117,punta arenas,-53.15,-70.9167,6.06,56,40,12.35,CL,Sun Oct  1 10:30:23 2023
118,belyy yar,53.6039,91.3903,4.94,70,75,1.0,RU,Sun Oct  1 10:35:09 2023
119,hithadhoo,-0.6,73.0833,28.17,71,89,6.3,MV,Sun Oct  1 10:35:09 2023
120,klofta,60.0667,11.15,13.6,65,0,3.6,NO,Sun Oct  1 10:35:09 2023
121,margaret river,-33.95,115.0667,13.0,77,98,11.08,AU,Sun Oct  1 10:35:10 2023
122,patacamaya,-17.2333,-67.9167,15.84,38,27,3.73,BO,Sun Oct  1 10:35:10 2023
123,taltal,-25.4,-70.4833,18.05,67,5,2.79,CL,Sun Oct  1 10:35:10 2023
124,gereida,11.2811,25.1414,34.05,36,73,1.8,SD,Sun Oct  1 10:35:10 2023
125,chonchi,-42.6128,-73.8092,6.18,98,100,1.4,CL,Sun Oct  1 10:35:10 2023
126,sao joao da barra,-21.6403,-41.0511,24.05,77,100,8.67,BR,Sun Oct  1 10:35:11 2023
127,albany,42.6001,-73.9662,18.13,88,1,2.93,US,Sun Oct  1 10:31:48 2023
128,kapa'a,22.0752,-159.319,25.18,85,20,6.69,US,Sun Oct  1 10:35:11 2023
129,olyokminsk,60.3736,120.4264,5.47,89,58,0.86,RU,Sun Oct  1 10:35:11 2023
130,muang xay,20.7,101.9833,21.42,99,53,0.84,LA,Sun Oct  1 10:35:11 2023
131,keflavik,64.0049,-22.5624,11.95,76,0,4.63,IS,Sun Oct  1 10:35:12 2023
132,san martin,-33.081,-68.4681,23.3,25,3,4.72,AR,Sun Oct  1 10:35:12 2023
133,papatowai,-46.5619,169.4708,13.43,64,99,4.36,NZ,Sun Oct  1 10:35:12 2023
134,howrah,22.5892,88.3103,28.0,94,75,2.06,IN,Sun Oct  1 10:35:12 2023
135,ilulissat,69.2167,-51.1,0.01,51,6,2.06,GL,Sun Oct  1 10:35:13 2023
136,kodiak,57.79,-152.4072,8.73,100,100,2.57,US,Sun Oct  1 10:35:13 2023
137,urengoy,65.9667,78.3667,2.28,68,100,7.6,RU,Sun Oct  1 10:35:13 2023
138,altay,47.8667,88.1167,8.66,61,31,2.52,CN,Sun Oct  1 10:35:13 2023
139,oroqen zizhiqi,50.5667,123.7167,4.55,86,27,0.14,CN,Sun Oct  1 10:35:13 2023
140,bartica,6.4,-58.6167,35.18,34,100,2.16,GY,Sun Oct  1 10:35:14 2023
141,kibondo,-3.5864,30.7203,30.35,24,70,2.55,TZ,Sun Oct  1 10:35:14 2023
142,acarau,-2.8856,-40.12,31.77,53,36,9.31,BR,Sun Oct  1 10:35:14 2023
143,alice springs,-23.7,133.8833,29.75,15,81,3.6,AU,Sun Oct  1 10:30:35 2023
144,bamboo flat,11.7,92.7167,27.05,89,75,1.54,IN,Sun Oct  1 10:35:14 2023
145,friedland,51.4167,9.9333,22.77,52,98,1.79,DE,Sun Oct  1 10:35:14 2023
146,shetpe,44.1667,52.1167,20.78,39,14,3.7,KZ,Sun Oct  1 10:35:15 2023
147,stanley,54.868,-1.6985,20.16,73,100,4.68,GB,Sun Oct  1 10:30:50 2023
148,ulsteinvik,62.3432,5.8487,13.32,77,100,2.24,NO,Sun Oct  1 10:35:15 2023
149,formosa do rio preto,-11.0483,-45.1931,37.81,17,0,3.04,BR,Sun Oct  1 10:35:15 2023
150,pangody,65.85,74.4859,2.26,100,100,3.43,RU,Sun Oct  1 10:32:25 2023
151,orcopampa,-15.2661,-72.3417,11.69,70,53,1.62,PE,Sun Oct  1 10:35:16 2023
152,bilibino,68.0546,166.4372,-7.8,87,100,0.75,RU,Sun Oct  1 10:35:16 2023
153,al jawf,29.5,38.75,32.82,13,15,4.36,SA,Sun Oct  1 10:35:16 2023
154,mubende,0.5606,31.39,20.57,78,80,0.67,UG,Sun Oct  1 10:35:16 2023
155,ryotsu-minato,38.0833,138.4333,18.9,68,31,5.06,JP,Sun Oct  1 10:35:16 2023
156,nikolayevsk-on-amure,53.1406,140.73,9.51,97,100,3.18,RU,Sun Oct  1 10:35:17 2023
157,akwanga,8.9167,8.3833,27.19,77,87,2.2,NG,Sun Oct  1 10:35:17 2023
158,hola,51.5377,23.1902,16.1,44,88,3.01,PL,Sun Oct  1 10:35:17 2023
159,puerto real,36.5282,-6.1901,35.07,35,0,7.2,ES,Sun Oct  1 10:35:17 2023
160,tamalpais valley,37.8796,-122.5458,14.25,91,35,2.24,US,Sun Oct  1 10:35:17 2023
161,lorengau,-2.0226,147.2712,26.55,81,24,2.18,PG,Sun Oct  1 10:35:18 2023
162,rawson,-43.3002,-65.1023,19.28,31,100,5.03,AR,Sun Oct  1 10:35:18 2023
163,ridgecrest,35.6225,-117.6709,12.79,65,75,3.09,US,Sun Oct  1 10:35:18 2023
164,alofi,-19.0595,-169.9187,21.94,68,99,6.69,NU,Sun Oct  1 10:35:18 2023
165,utrik,11.2278,169.8474,27.43,77,100,2.8,MH,Sun Oct  1 10:35:18 2023
166,sealy,29.7808,-96.1572,28.61,81,70,1.34,US,Sun Oct  1 10:35:18 2023
167,roma,43.2128,-75.4557,20.53,100,100,0.0,US,Sun Oct  1 10:32:48 2023
168,tazovsky,67.4667,78.7,-0.16,95,100,6.41,RU,Sun Oct  1 10:32:21 2023
169,zholymbet,51.7433,71.7122,12.92,59,99,3.85,KZ,Sun Oct  1 10:35:19 2023
170,bargaal,11.2864,51.0773,27.51,76,4,2.13,SO,Sun Oct  1 10:35:19 2023
171,kingston,17.997,-76.7936,33.53,66,20,1.79,JM,Sun Oct  1 10:35:20 2023
172,quelimane,-17.8786,36.8883,30.97,55,0,9.26,MZ,Sun Oct  1 10:30:37 2023
173,mount isa,-20.7333,139.5,18.87,37,3,1.03,AU,Sun Oct  1 10:35:20 2023
174,tulum,20.2167,-87.4667,29.2,83,79,1.71,MX,Sun Oct  1 10:35:20 2023
175,kavieng,-2.5744,150.7967,26.94,83,94,2.67,PG,Sun Oct  1 10:35:20 2023
176,yaren,-0.5472,166.916,28.4,76,11,2.84,NR,Sun Oct  1 10:35:21 2023
177,bela,25.9333,81.9833,27.85,75,52,2.14,IN,Sun Oct  1 10:35:21 2023
178,portoferraio,42.8115,10.3146,27.29,57,0,0.0,IT,Sun Oct  1 10:35:21 2023
179,xiannu,32.4367,119.5508,19.94,74,99,2.88,CN,Sun Oct  1 10:35:21 2023
180,ta`u,-14.2336,-169.5144,26.46,83,27,8.27,AS,Sun Oct  1 10:35:21 2023
181,kudat,6.8837,116.8477,27.96,83,100,3.13,MY,Sun Oct  1 10:35:21 2023
182,les cayes,18.2,-73.75,31.66,65,98,3.5,HT,Sun Oct  1 10:35:22 2023
183,puerto santa,-8.9906,-78.6456,19.76,82,95,3.9,PE,Sun Oct  1 10:35:22 2023
184,vilyuchinsk,52.9306,158.4028,7.18,82,99,0.57,RU,Sun Oct  1 10:35:22 2023
185,dombarovskiy,50.7587,59.5386,16.67,45,99,2.68,RU,Sun Oct  1 10:35:22 2023
186,kembe,4.6228,21.8865,27.97,74,83,0.84,CF,Sun Oct  1 10:35:22 2023
187,weno,7.4515,151.8468,27.97,89,40,2.57,FM,Sun Oct  1 10:35:23 2023
188,nabire,-3.3667,135.4833,24.41,88,100,0.46,ID,Sun Oct  1 10:35:23 2023
189,lihue,21.9789,-159.3672,24.77,85,20,6.69,US,Sun Oct  1 10:35:23 2023
190,sittwe,20.15,92.9,26.03,92,100,6.09,MM,Sun Oct  1 10:35:23 2023
191,tolanaro,-25.0319,46.9987,28.04,65,20,6.17,MG,Sun Oct  1 10:35:23 2023
192,dudinka,69.4058,86.1778,-10.74,96,57,1.34,RU,Sun Oct  1 10:35:24 2023
193,uturoa,-16.7333,-151.4333,25.85,79,70,8.72,PF,Sun Oct  1 10:35:24 2023
194,lodja,-3.4833,23.4333,33.16,42,79,0.99,CD,Sun Oct  1 10:35:24 2023
195,tromso,69.6496,18.957,6.01,81,75,3.09,NO,Sun Oct  1 10:34:57 2023
196,katsuura,35.1333,140.3,24.52,87,99,1.7,JP,Sun Oct  1 10:35:24 2023
197,crikvenica,45.1772,14.6928,26.25,52,0,1.54,HR,Sun Oct  1 10:35:25 2023
198,las higueras,-33.0923,-64.289,25.23,24,0,7.72,AR,Sun Oct  1 10:35:25 2023
199,grootfontein,-19.5667,18.1167,35.76,7,0,2.57,NA,Sun Oct  1 10:35:25 2023
200,moroni,-11.7022,43.2551,28.0,65,75,3.6,KM,Sun Oct  1 10:35:25 2023
201,al qitena,14.8648,32.3668,38.73,20,3,1.4,SD,Sun Oct  1 10:35:25 2023
202,mejit,10.2753,170.8646,27.02,79,100,4.16,MH,Sun Oct  1 10:35:25 2023
203,sumbe,-11.2061,13.8437,24.47,79,38,3.8,AO,Sun Oct  1 10:35:26 2023
204,tshabong,-26.05,22.45,30.94,8,0,3.95,BW,Sun Oct  1 10:35:26 2023
205,longyearbyen,78.2186,15.6401,-3.09,68,75,9.26,SJ,Sun Oct  1 10:35:26 2023
206,komyshuvakha,47.7176,35.5288,23.39,32,32,0.88,UA,Sun Oct  1 10:35:26 2023
207,goroka,-6.0834,145.3873,16.8,98,84,0.35,PG,Sun Oct  1 10:35:27 2023
208,eraan,9.0629,117.7016,26.12,90,100,5.58,PH,Sun Oct  1 10:35:27 2023
209,afaahiti,-17.75,-149.2833,22.93,84,40,8.77,PF,Sun Oct  1 10:35:27 2023
210,cabedelo,-6.9811,-34.8339,25.37,61,45,6.9,BR,Sun Oct  1 10:35:27 2023
211,sweet home,44.3976,-122.7362,8.86,66,26,1.02,US,Sun Oct  1 10:35:27 2023
212,holualoa,19.6228,-155.9522,25.48,87,75,3.09,US,Sun Oct  1 10:35:27 2023
213,grand falls-windsor,48.9332,-55.6649,18.61,64,71,0.89,CA,Sun Oct  1 10:35:28 2023
214,ormara,25.2088,64.6357,28.51,60,0,7.4,PK,Sun Oct  1 10:35:28 2023
215,saldanha,-33.0117,17.9442,22.03,62,0,5.21,ZA,Sun Oct  1 10:35:28 2023
216,alijo,41.2845,-7.4855,32.26,20,15,0.89,PT,Sun Oct  1 10:35:28 2023
217,akureyri,65.6835,-18.0878,7.96,66,40,1.54,IS,Sun Oct  1 10:35:29 2023
218,fale old settlement,-9.3852,-171.2468,27.39,78,25,2.27,TK,Sun Oct  1 10:35:29 2023
219,villanueva,15.3167,-88.0,28.35,88,40,0.51,HN,Sun Oct  1 10:35:29 2023
220,remire-montjoly,4.9167,-52.2667,33.02,52,75,4.12,GF,Sun Oct  1 10:35:29 2023
221,manakara,-22.1333,48.0167,23.7,80,8,6.22,MG,Sun Oct  1 10:35:29 2023
222,crane,31.3974,-102.3501,24.06,65,100,9.63,US,Sun Oct  1 10:35:29 2023
223,sing buri,14.85,100.2333,26.63,84,100,1.07,TH,Sun Oct  1 10:35:30 2023
224,whakatane,-37.9585,176.9854,13.06,89,98,3.15,NZ,Sun Oct  1 10:35:30 2023
225,tsiombe,-25.3,45.4833,25.83,48,1,2.97,MG,Sun Oct  1 10:35:30 2023
226,ishigaki,24.3448,124.1572,28.07,83,75,6.17,JP,Sun Oct  1 10:35:30 2023
227,ulladulla,-35.35,150.4667,14.51,68,23,2.36,AU,Sun Oct  1 10:35:31 2023
228,piton saint-leu,-21.2196,55.3151,24.04,69,0,2.06,RE,Sun Oct  1 10:35:31 2023
229,kiunga,-6.1219,141.2906,22.97,99,100,1.18,PG,Sun Oct  1 10:35:31 2023
230,kazan,55.7887,49.1221,20.97,43,7,3.39,RU,Sun Oct  1 10:35:31 2023
231,coquimbo,-29.9533,-71.3436,13.85,82,100,3.09,CL,Sun Oct  1 10:35:31 2023
232,avon park,27.5959,-81.5062,28.22,84,8,5.33,US,Sun Oct  1 10:35:32 2023
233,sao paulo de olivenca,-3.3783,-68.8725,33.31,51,100,0.86,BR,Sun Oct  1 10:35:32 2023
234,xining,36.6167,101.7667,13.24,79,99,3.52,CN,Sun Oct  1 10:35:32 2023
235,soio,-6.1349,12.3689,26.33,74,60,4.91,AO,Sun Oct  1 10:35:32 2023
236,nguigmi,14.2495,13.1092,33.18,32,100,1.67,NE,Sun Oct  1 10:35:32 2023
237,nova vicosa,-17.8919,-39.3719,27.04,59,33,4.12,BR,Sun Oct  1 10:35:33 2023
238,opuwo,-18.0607,13.84,36.25,6,0,3.82,NA,Sun Oct  1 10:35:33 2023
239,thunder bay,48.4001,-89.3168,15.99,100,100,4.12,CA,Sun Oct  1 10:35:24 2023
240,hakkari,37.5833,44.1667,16.88,48,75,8.23,TR,Sun Oct  1 10:35:33 2023
241,okha,53.5739,142.9478,8.91,99,100,5.45,RU,Sun Oct  1 10:35:33 2023
242,andergrove,-21.0833,149.1833,19.8,85,66,5.27,AU,Sun Oct  1 10:35:34 2023
243,rongelap,11.1635,166.8941,27.98,78,100,5.83,MH,Sun Oct  1 10:35:34 2023
244,newman,37.3138,-121.0208,15.59,88,79,0.88,US,Sun Oct  1 10:34:19 2023
245,governador valadares,-18.8511,-41.9494,31.8,41,69,1.23,BR,Sun Oct  1 10:31:14 2023
246,ternate,0.8,127.4,26.75,83,52,2.76,ID,Sun Oct  1 10:35:34 2023
247,hakui,36.8833,136.7833,19.01,77,30,3.07,JP,Sun Oct  1 10:35:35 2023
248,kendari,-3.945,122.4989,23.48,92,16,0.23,ID,Sun Oct  1 10:35:35 2023
249,kunshan,31.3776,120.9543,23.84,75,72,2.49,CN,Sun Oct  1 10:35:35 2023
250,glace bay,46.1969,-59.957,19.42,59,0,1.34,CA,Sun Oct  1 10:35:21 2023
251,idri,27.5,13.2667,33.49,23,99,3.96,LY,Sun Oct  1 10:35:35 2023
252,kalemie,-5.9475,29.1947,29.95,40,0,2.32,CD,Sun Oct  1 10:35:35 2023
253,jikamshi,12.1733,7.7742,27.31,64,97,4.65,NG,Sun Oct  1 10:35:36 2023
254,peniche,39.3558,-9.3811,34.49,52,29,3.86,PT,Sun Oct  1 10:34:54 2023
255,haren,52.7833,7.2333,22.28,64,100,3.6,DE,Sun Oct  1 10:35:36 2023
256,peterhead,57.5058,-1.7981,20.25,71,6,2.71,GB,Sun Oct  1 10:32:36 2023
257,pisco,-13.7,-76.2167,20.57,82,0,1.54,PE,Sun Oct  1 10:34:18 2023
258,shingu,33.7333,135.9833,18.99,83,26,3.22,JP,Sun Oct  1 10:35:36 2023
259,mount darwin,-16.7725,31.5838,32.73,24,61,3.47,ZW,Sun Oct  1 10:35:37 2023
260,novodvinsk,64.4165,40.8122,12.66,84,97,3.13,RU,Sun Oct  1 10:35:37 2023
261,calabozo,8.9242,-67.4293,33.13,56,73,1.87,VE,Sun Oct  1 10:35:37 2023
262,cascais,38.6979,-9.4215,32.64,44,0,3.13,PT,Sun Oct  1 10:33:15 2023
263,newnham,-41.3833,147.1333,6.53,75,33,2.06,AU,Sun Oct  1 10:35:37 2023
264,nuku'alofa,-21.1333,-175.2,20.19,73,20,1.54,TO,Sun Oct  1 10:35:38 2023
265,la passe,45.5549,-0.8967,31.13,39,45,1.39,FR,Sun Oct  1 10:35:38 2023
266,road town,18.4167,-64.6167,31.05,79,40,3.6,VG,Sun Oct  1 10:35:38 2023
267,fray luis beltran,-39.3167,-65.7667,21.82,26,100,6.27,AR,Sun Oct  1 10:35:38 2023
268,homer,59.6425,-151.5483,7.93,88,100,0.0,US,Sun Oct  1 10:34:49 2023
269,mendefera,14.8872,38.8153,22.92,30,51,7.41,ER,Sun Oct  1 10:35:38 2023
270,coahuayana de hidalgo,18.7,-103.6583,29.48,75,10,0.74,MX,Sun Oct  1 10:35:39 2023
271,la'ie,21.6477,-157.9253,26.98,81,46,2.24,US,Sun Oct  1 10:35:39 2023
272,mangrol,21.1167,70.1167,26.99,78,2,5.12,IN,Sun Oct  1 10:35:39 2023
273,pohja,60.0963,23.5276,14.36,72,1,5.8,FI,Sun Oct  1 10:35:39 2023
274,nouadhibou,20.931,-17.0347,31.99,43,95,5.14,MR,Sun Oct  1 10:35:40 2023
275,zemoura,35.7225,0.7551,32.86,19,0,2.81,DZ,Sun Oct  1 10:35:40 2023
276,wattegama,6.7989,81.4808,25.6,79,100,4.44,LK,Sun Oct  1 10:35:40 2023
277,madingou,-4.1536,13.55,30.94,51,94,1.74,CG,Sun Oct  1 10:35:40 2023
278,oranjemund,-28.55,16.4333,17.79,65,0,6.13,NA,Sun Oct  1 10:35:40 2023
279,okhotsk,59.3833,143.3,7.29,77,100,1.71,RU,Sun Oct  1 10:35:40 2023
280,port-vila,-17.7338,168.3219,21.78,64,100,3.09,VU,Sun Oct  1 10:35:41 2023
281,harstad,68.799,16.5293,7.66,98,100,8.49,NO,Sun Oct  1 10:35:41 2023
282,igarka,67.4667,86.5833,-4.43,70,0,0.6,RU,Sun Oct  1 10:35:41 2023
283,marka,1.7159,44.7717,25.84,84,26,6.98,SO,Sun Oct  1 10:35:41 2023
284,kas,36.2018,29.6377,25.78,56,19,4.01,TR,Sun Oct  1 10:35:41 2023
285,broken hill,-31.95,141.4333,18.9,36,30,5.94,AU,Sun Oct  1 10:33:10 2023
286,burutu,5.3509,5.5076,28.83,70,53,5.82,NG,Sun Oct  1 10:35:42 2023
287,xilin hot,43.9667,116.0333,9.41,38,0,3.29,CN,Sun Oct  1 10:35:42 2023
288,sao gabriel da cachoeira,-0.1303,-67.0892,28.89,79,75,1.54,BR,Sun Oct  1 10:35:42 2023
289,kapchorwa,1.3965,34.4509,19.65,69,59,0.77,UG,Sun Oct  1 10:35:42 2023
290,khandyga,62.6667,135.6,3.08,70,98,0.71,RU,Sun Oct  1 10:35:43 2023
291,mwanza,-2.5167,32.9,26.03,69,40,6.17,TZ,Sun Oct  1 10:35:43 2023
292,mata-utu,-13.2816,-176.1745,27.06,78,81,10.83,WF,Sun Oct  1 10:35:43 2023
293,klaksvik,62.2266,-6.589,11.51,86,82,12.61,FO,Sun Oct  1 10:35:43 2023
294,ndago,-4.6,34.35,30.86,20,48,4.13,TZ,Sun Oct  1 10:35:43 2023
295,nalut,30.3333,10.85,30.47,28,1,4.89,LY,Sun Oct  1 10:35:44 2023
296,namibe,-15.1961,12.1522,21.22,71,5,4.5,AO,Sun Oct  1 10:35:44 2023
297,gadzhiyevo,69.2551,33.3362,6.28,77,95,5.36,RU,Sun Oct  1 10:33:17 2023
298,el nido,11.1858,119.3956,27.19,85,78,2.76,PH,Sun Oct  1 10:35:44 2023
299,brezina,33.0989,1.2608,29.5,19,0,2.57,DZ,Sun Oct  1 10:35:44 2023
300,kijang,35.2442,129.2139,15.85,55,0,2.71,KR,Sun Oct  1 10:35:44 2023
301,ancud,-41.8697,-73.8203,9.35,84,100,0.39,CL,Sun Oct  1 10:35:45 2023
302,hotan,37.0997,79.9269,20.17,24,0,1.65,CN,Sun Oct  1 10:35:45 2023
303,peace river,56.2501,-117.286,4.25,96,40,3.09,CA,Sun Oct  1 10:32:04 2023
304,mabaruma,8.2,-59.7833,35.29,41,98,2.13,GY,Sun Oct  1 10:35:45 2023
305,nemuro,43.3236,145.575,16.57,89,100,3.07,JP,Sun Oct  1 10:31:28 2023
306,lashio,22.9333,97.75,20.48,99,98,0.76,MM,Sun Oct  1 10:35:46 2023
307,sidney,-33.8679,151.2073,18.69,71,32,8.75,AU,Sun Oct  1 10:31:33 2023
308,nueva gerona,21.8833,-82.8,30.27,69,85,3.39,CU,Sun Oct  1 10:35:46 2023
309,waingapu,-9.6567,120.2641,24.75,80,70,2.2,ID,Sun Oct  1 10:35:46 2023
310,ngama,11.7833,17.1667,33.66,40,28,0.98,TD,Sun Oct  1 10:35:46 2023
311,savalou,7.9281,1.9756,29.79,67,64,3.14,BJ,Sun Oct  1 10:35:47 2023
312,las heras,-46.5419,-68.9359,11.17,37,100,9.86,AR,Sun Oct  1 10:35:47 2023
313,paragominas,-2.9667,-47.4833,37.21,33,39,1.93,BR,Sun Oct  1 10:32:22 2023
314,saint-francois,46.4154,3.9054,25.69,52,0,2.06,FR,Sun Oct  1 10:35:47 2023
315,lae,-6.7221,146.9847,24.38,90,57,1.69,PG,Sun Oct  1 10:35:47 2023
316,margate,51.3813,1.3862,22.71,72,100,0.45,GB,Sun Oct  1 10:35:47 2023
317,mandera,3.9366,41.867,34.94,32,81,6.18,KE,Sun Oct  1 10:35:48 2023
318,mahina,-17.5065,-149.489,23.87,78,20,1.54,PF,Sun Oct  1 10:35:48 2023
319,yichun,47.7,128.9,5.57,93,93,1.3,CN,Sun Oct  1 10:35:48 2023
320,orda,57.1951,56.9091,11.4,66,91,4.31,RU,Sun Oct  1 10:35:48 2023
321,keokuk,40.3973,-91.3849,23.94,68,0,2.57,US,Sun Oct  1 10:35:48 2023
322,la ronge,55.1001,-105.2842,7.14,70,100,3.09,CA,Sun Oct  1 10:35:48 2023
323,port alfred,-33.5906,26.891,17.1,59,54,4.65,ZA,Sun Oct  1 10:35:49 2023
324,riosucio,5.4216,-75.7032,20.29,58,98,0.31,CO,Sun Oct  1 10:35:49 2023
325,kodinsk,58.6881,99.1844,2.47,71,94,4.2,RU,Sun Oct  1 10:35:49 2023
326,kismayo,-0.3582,42.5454,26.2,72,21,6.55,SO,Sun Oct  1 10:35:49 2023
327,kruisfontein,-34.0033,24.7314,17.71,64,94,5.38,ZA,Sun Oct  1 10:35:49 2023
328,smara,26.7384,-11.6719,39.62,9,80,8.73,EH,Sun Oct  1 10:35:49 2023
329,port saint john's,-31.6229,29.5448,18.36,58,61,3.74,ZA,Sun Oct  1 10:35:50 2023
330,broome,42.2506,-75.833,20.61,83,0,3.6,US,Sun Oct  1 10:35:50 2023
331,shahba,32.8551,36.629,20.49,60,96,9.16,SY,Sun Oct  1 10:35:50 2023
332,prince rupert,54.3161,-130.3201,9.83,94,100,14.4,CA,Sun Oct  1 10:35:50 2023
333,penzance,50.1186,-5.5371,17.38,91,100,2.94,GB,Sun Oct  1 10:35:50 2023
334,shijiang,27.0819,110.7933,23.99,79,100,3.0,CN,Sun Oct  1 10:35:51 2023
335,kokopo,-4.352,152.2633,24.98,90,78,3.02,PG,Sun Oct  1 10:35:51 2023
336,gjirokaster,40.0758,20.1389,24.77,44,82,1.04,AL,Sun Oct  1 10:34:56 2023
337,selfoss,63.9331,-20.9971,11.14,64,100,6.75,IS,Sun Oct  1 10:35:51 2023
338,prado,-17.3411,-39.2208,26.18,61,24,4.18,BR,Sun Oct  1 10:32:58 2023
339,pervomayskoye,43.919,46.7102,22.82,48,0,5.81,RU,Sun Oct  1 10:35:51 2023
340,portland,45.5234,-122.6762,9.89,92,20,0.89,US,Sun Oct  1 10:32:29 2023
341,narasapur,16.45,81.6667,26.7,89,100,2.73,IN,Sun Oct  1 10:35:52 2023
342,maryborough,-25.5333,152.7,16.25,84,0,0.57,AU,Sun Oct  1 10:35:52 2023
343,cobija,-11.0267,-68.7692,29.1,74,75,2.06,BO,Sun Oct  1 10:35:52 2023
344,belluru,12.9911,76.7444,21.47,83,98,4.32,IN,Sun Oct  1 10:34:19 2023
345,mersa matruh,31.3525,27.2453,27.11,57,40,6.17,EG,Sun Oct  1 10:35:52 2023
346,palmer,42.1584,-72.3287,19.87,76,0,3.6,US,Sun Oct  1 10:35:53 2023
347,puerto penasco,31.3167,-113.5333,23.72,45,0,1.74,MX,Sun Oct  1 10:35:53 2023
348,eirunepe,-6.6603,-69.8736,27.15,85,96,1.31,BR,Sun Oct  1 10:35:53 2023
349,hwange,-18.3693,26.5019,36.6,18,38,5.11,ZW,Sun Oct  1 10:35:53 2023
350,sanctuary point,-35.1114,150.629,18.19,73,17,2.7,AU,Sun Oct  1 10:35:53 2023
351,midvagur,62.0511,-7.1939,11.46,93,100,5.66,FO,Sun Oct  1 10:35:53 2023
352,cidreira,-30.1811,-50.2056,16.74,62,80,3.75,BR,Sun Oct  1 10:35:54 2023
353,ghanzi,-21.5667,21.7833,35.33,6,0,4.53,BW,Sun Oct  1 10:35:54 2023
354,praya,14.9215,-23.5087,31.3,62,75,9.26,CV,Sun Oct  1 10:35:54 2023
355,gantt,34.8001,-82.4243,23.29,75,0,2.57,US,Sun Oct  1 10:35:54 2023
356,el colomo,19.05,-104.25,29.37,77,17,0.43,MX,Sun Oct  1 10:35:54 2023
357,baijiantan,45.6333,85.1833,20.43,36,42,2.69,CN,Sun Oct  1 10:35:55 2023
358,tura,25.5198,90.2201,23.88,97,71,1.74,IN,Sun Oct  1 10:35:55 2023
359,norfolk county,42.1668,-71.2495,17.72,88,0,3.92,US,Sun Oct  1 10:34:22 2023
360,rio grande,-32.035,-52.0986,22.06,64,0,1.78,BR,Sun Oct  1 10:34:25 2023
361,cabo san lucas,22.8909,-109.9124,28.2,68,0,2.68,MX,Sun Oct  1 10:26:31 2023
362,bandarbeyla,9.4942,50.8122,26.16,86,4,8.52,SO,Sun Oct  1 10:35:55 2023
363,dryden,49.7833,-92.7503,14.16,100,100,4.12,CA,Sun Oct  1 10:35:56 2023
364,chibougamau,49.9168,-74.3659,15.48,60,4,1.59,CA,Sun Oct  1 10:35:56 2023
365,charcas,23.1333,-101.1167,17.17,70,43,2.91,MX,Sun Oct  1 10:35:56 2023
366,arfoud,31.4348,-4.2375,31.75,15,0,0.79,MA,Sun Oct  1 10:35:56 2023
367,suzzara,44.9919,10.7431,28.9,37,0,1.96,IT,Sun Oct  1 10:35:56 2023
368,maintirano,-18.0667,44.0167,26.53,69,1,4.59,MG,Sun Oct  1 10:35:57 2023
369,san fernando del valle de catamarca,-28.4696,-65.7852,24.21,37,0,3.58,AR,Sun Oct  1 10:32:09 2023
370,hondo,32.45,130.2,21.92,59,95,6.7,JP,Sun Oct  1 10:35:57 2023
371,shakhtars'k,48.0625,38.5167,23.01,34,59,2.29,UA,Sun Oct  1 10:35:57 2023
372,barguzin,53.6167,109.6167,10.88,64,100,1.34,RU,Sun Oct  1 10:35:57 2023
373,suva,-18.1416,178.4415,21.71,60,40,2.57,FJ,Sun Oct  1 10:35:58 2023
374,sao francisco,-15.9486,-44.8644,37.92,26,0,1.3,BR,Sun Oct  1 10:35:58 2023
375,nantucket,41.2835,-70.0995,19.03,85,0,10.29,US,Sun Oct  1 10:31:39 2023
376,tanumah,27.1,44.1333,32.74,12,0,3.66,SA,Sun Oct  1 10:35:58 2023
377,lompoc,34.6391,-120.4579,12.74,87,100,3.6,US,Sun Oct  1 10:32:24 2023
378,hobyo,5.3505,48.5268,26.52,81,27,8.52,SO,Sun Oct  1 10:35:58 2023
379,mitsamiouli,-11.3847,43.2844,28.16,65,75,3.6,KM,Sun Oct  1 10:35:59 2023
380,sinabang,2.4803,96.3801,26.5,86,72,4.19,ID,Sun Oct  1 10:35:59 2023
381,tucurui,-3.7661,-49.6725,39.17,28,69,2.18,BR,Sun Oct  1 10:35:59 2023
382,skelleftea,64.7507,20.9528,11.67,96,0,3.6,SE,Sun Oct  1 10:35:59 2023
383,auki,-8.7676,160.7034,24.58,88,68,2.83,SB,Sun Oct  1 10:35:59 2023
384,kailua-kona,19.6406,-155.9956,27.55,91,75,3.09,US,Sun Oct  1 10:36:00 2023
385,thinadhoo,0.5333,72.9333,28.21,73,100,5.12,MV,Sun Oct  1 10:36:00 2023
386,island harbour,50.724,-1.2758,20.64,85,99,2.24,GB,Sun Oct  1 10:36:00 2023
387,yuzhno-kurilsk,44.0306,145.8556,15.76,96,100,2.75,RU,Sun Oct  1 10:36:00 2023
388,gorgan,36.8387,54.4348,24.98,47,40,4.12,IR,Sun Oct  1 10:36:00 2023
389,teruel,40.6667,-0.6667,27.02,19,19,2.67,ES,Sun Oct  1 10:36:01 2023
390,hammerfest,70.6634,23.6821,4.25,87,75,9.26,NO,Sun Oct  1 10:36:01 2023
391,dunedin,-45.8742,170.5036,13.95,63,100,5.27,NZ,Sun Oct  1 10:36:01 2023
392,ugoofaaru,5.6667,73.0,27.8,76,95,5.17,MV,Sun Oct  1 10:36:01 2023
393,huangmei,30.1924,116.025,21.12,77,82,4.05,CN,Sun Oct  1 10:36:01 2023
394,reggane,26.7158,0.1714,39.93,11,0,5.45,DZ,Sun Oct  1 10:36:01 2023
395,wellington,-41.2866,174.7756,14.21,88,40,6.69,NZ,Sun Oct  1 10:35:02 2023
396,gurlan,41.8447,60.3919,20.95,32,36,3.33,UZ,Sun Oct  1 10:36:02 2023
397,sakaiminato,35.55,133.2333,20.99,60,40,3.6,JP,Sun Oct  1 10:36:02 2023
398,yayladagi,35.9025,36.0627,20.86,75,39,7.47,TR,Sun Oct  1 10:36:02 2023
399,pskov,57.8136,28.3496,14.95,72,20,4.02,RU,Sun Oct  1 10:34:18 2023
400,ladario,-19.0047,-57.6017,32.16,40,0,2.57,BR,Sun Oct  1 10:36:03 2023
401,pursat,12.3333,103.6667,24.9,94,97,1.44,KH,Sun Oct  1 10:36:03 2023
402,shakawe,-18.3667,21.85,38.35,8,4,4.92,BW,Sun Oct  1 10:36:03 2023
403,agdam,39.991,46.9274,20.39,73,99,1.21,AZ,Sun Oct  1 10:36:03 2023
404,turbana,10.2717,-75.4422,30.45,74,100,1.71,CO,Sun Oct  1 10:36:04 2023
405,minas de marcona,-15.2119,-75.1103,18.2,67,51,4.48,PE,Sun Oct  1 10:36:04 2023
406,hobbs,32.7026,-103.136,21.33,71,100,3.6,US,Sun Oct  1 10:36:04 2023
407,labrador city,52.9463,-66.9114,7.95,71,75,5.14,CA,Sun Oct  1 10:36:04 2023
408,seminole,28.7086,-81.2081,26.0,82,100,4.12,US,Sun Oct  1 10:36:04 2023
409,damavand,35.7178,52.065,15.35,28,75,1.35,IR,Sun Oct  1 10:36:05 2023
410,sitka,57.0531,-135.33,11.94,76,100,4.63,US,Sun Oct  1 10:31:17 2023
411,sao domingos do prata,-19.865,-42.9683,28.44,50,84,2.39,BR,Sun Oct  1 10:36:05 2023
412,gamba,-2.65,10.0,26.84,75,47,4.87,GA,Sun Oct  1 10:36:05 2023
413,ranchi,23.35,85.3333,23.06,94,100,4.12,IN,Sun Oct  1 10:36:05 2023
414,kill devil hills,36.0307,-75.676,22.01,78,40,6.17,US,Sun Oct  1 10:36:05 2023
415,geidam,12.897,11.9304,32.17,43,56,6.18,NG,Sun Oct  1 10:36:06 2023
416,nambucca heads,-30.65,153.0,20.0,58,36,1.92,AU,Sun Oct  1 10:36:06 2023
417,havran,39.5583,27.0983,25.79,34,75,6.17,TR,Sun Oct  1 10:36:06 2023
418,balaklava,44.5,33.6,21.66,51,98,3.37,UA,Sun Oct  1 10:36:06 2023
419,tofol,5.3248,163.0078,28.51,72,36,2.61,FM,Sun Oct  1 10:36:06 2023
420,taro,-8.3862,115.28,22.0,83,52,0.27,ID,Sun Oct  1 10:36:07 2023
421,beau vallon,-20.4189,57.6953,25.13,78,40,5.14,MU,Sun Oct  1 10:36:07 2023
422,kangaba,11.9333,-8.4167,34.32,45,95,2.31,ML,Sun Oct  1 10:36:07 2023
423,bahawalpur,29.4,71.6833,30.7,15,0,2.49,PK,Sun Oct  1 10:36:07 2023
424,porbandar,21.6422,69.6093,27.25,78,1,5.04,IN,Sun Oct  1 10:36:07 2023
425,banamba,13.55,-7.45,37.51,26,99,3.27,ML,Sun Oct  1 10:36:08 2023
426,clinton,42.587,-82.9199,22.36,81,75,0.0,US,Sun Oct  1 10:36:08 2023
427,bhamo,24.2667,97.2333,24.68,98,98,0.67,MM,Sun Oct  1 10:36:08 2023
428,buzuluk,52.7807,52.2635,18.31,45,10,2.68,RU,Sun Oct  1 10:36:08 2023
429,urangan,-25.3,152.9,20.41,70,7,3.52,AU,Sun Oct  1 10:36:08 2023
430,el calafate,-50.3408,-72.2768,4.18,58,9,7.18,AR,Sun Oct  1 10:36:09 2023
431,karnobat,42.65,26.9833,24.91,28,36,4.37,BG,Sun Oct  1 10:36:09 2023
432,isiro,2.7739,27.616,22.07,93,86,2.1,CD,Sun Oct  1 10:36:09 2023
433,fortuna foothills,32.6578,-114.4119,19.19,50,0,0.0,US,Sun Oct  1 10:36:09 2023
434,funadhoo,6.15,73.2667,27.93,75,89,5.96,MV,Sun Oct  1 10:36:09 2023
435,cedeira,43.6797,-8.0209,24.44,81,89,3.72,ES,Sun Oct  1 10:36:10 2023
436,carnarvon,-24.8667,113.6333,19.14,64,0,6.88,AU,Sun Oct  1 10:36:10 2023
437,tutong,4.8,114.65,27.05,87,97,3.87,BN,Sun Oct  1 10:36:10 2023
438,lakatoro,-16.0999,167.4164,23.57,76,100,7.74,VU,Sun Oct  1 10:36:10 2023
439,greenville,35.6127,-77.3663,21.75,81,0,4.63,US,Sun Oct  1 10:32:43 2023
440,megion,61.0296,76.1136,6.01,76,100,6.94,RU,Sun Oct  1 10:36:10 2023
441,kapuskasing,49.4169,-82.4331,12.0,100,100,2.06,CA,Sun Oct  1 10:36:11 2023
442,karratha,-20.7377,116.8463,27.47,28,0,8.76,AU,Sun Oct  1 10:36:11 2023
443,nangomba,-10.9,38.5,34.28,21,7,2.78,TZ,Sun Oct  1 10:36:11 2023
444,nar'yan-mar,67.6713,53.087,10.62,98,100,4.02,RU,Sun Oct  1 10:36:11 2023
445,magadan,59.5667,150.8,7.68,86,100,1.34,RU,Sun Oct  1 10:36:11 2023
446,mulayjah,27.271,48.4242,32.43,20,0,3.51,SA,Sun Oct  1 10:36:12 2023
447,loughrea,53.1969,-8.5669,15.23,73,41,5.3,IE,Sun Oct  1 10:36:12 2023
448,bassila,9.0081,1.6654,28.23,78,72,2.25,BJ,Sun Oct  1 10:36:12 2023
449,aral,40.5156,81.2636,22.3,18,6,2.14,CN,Sun Oct  1 10:36:12 2023
450,laboe,54.4,10.2167,15.14,88,100,3.6,DE,Sun Oct  1 10:36:12 2023
451,bonthe,7.5264,-12.505,28.95,75,100,4.03,SL,Sun Oct  1 10:36:13 2023
452,daru,-9.0763,143.2092,24.77,88,100,6.63,PG,Sun Oct  1 10:36:13 2023
453,xucheng,20.35,110.1288,26.36,85,0,3.37,CN,Sun Oct  1 10:36:13 2023
454,queenstown,-31.8976,26.8753,16.34,35,0,5.8,ZA,Sun Oct  1 10:36:13 2023
455,whangarei,-35.7317,174.3239,8.45,96,35,2.06,NZ,Sun Oct  1 10:36:13 2023
456,slave lake,55.2834,-114.769,0.99,75,0,3.6,CA,Sun Oct  1 10:35:45 2023
457,banda aceh,5.5577,95.3222,26.83,82,17,4.58,ID,Sun Oct  1 10:36:14 2023
458,aoulef,26.9667,1.0833,39.02,12,0,6.14,DZ,Sun Oct  1 10:36:14 2023
459,happy valley-goose bay,53.3168,-60.3315,13.17,76,75,5.66,CA,Sun Oct  1 10:36:14 2023
460,mont-laurier,46.5501,-75.4993,15.79,67,70,1.82,CA,Sun Oct  1 10:32:38 2023
461,berezovyy,51.6667,135.7,7.46,96,100,2.27,RU,Sun Oct  1 10:36:14 2023
462,wlodawa,51.55,23.55,16.78,47,91,2.79,PL,Sun Oct  1 10:36:15 2023
463,san luis de la loma,17.2706,-100.8939,29.14,77,28,1.04,MX,Sun Oct  1 10:36:15 2023
464,castillos,-34.1667,-53.8333,16.21,51,0,3.17,UY,Sun Oct  1 10:36:15 2023
465,ponta delgada,37.7333,-25.6667,22.88,73,40,7.2,PT,Sun Oct  1 10:36:15 2023
466,kulp,38.4972,41.0122,21.63,57,86,2.65,TR,Sun Oct  1 10:36:15 2023
467,pontes e lacerda,-15.2261,-59.3353,38.51,31,60,1.15,BR,Sun Oct  1 10:36:16 2023
468,hafar al-batin,28.4328,45.9708,38.32,10,0,2.06,SA,Sun Oct  1 10:36:16 2023
469,huangnihe,43.5583,128.0239,7.47,71,52,2.53,CN,Sun Oct  1 10:36:16 2023
470,general mosconi,-23.1851,-62.303,29.32,25,22,2.64,AR,Sun Oct  1 10:36:16 2023
471,verkhovazh'ye,60.7472,42.0465,13.41,84,10,3.91,RU,Sun Oct  1 10:36:17 2023
472,dongola,19.1667,30.4833,43.29,8,8,4.65,SD,Sun Oct  1 10:36:17 2023
473,rundu,-17.9333,19.7667,37.27,7,0,2.98,NA,Sun Oct  1 10:36:17 2023
474,puerto baquerizo moreno,-0.9,-89.6,23.55,94,75,5.14,EC,Sun Oct  1 10:32:23 2023
475,jining,35.405,116.5814,18.57,52,100,3.21,CN,Sun Oct  1 10:36:17 2023
476,caraballeda,10.6112,-66.8522,34.65,64,82,2.57,VE,Sun Oct  1 10:36:18 2023
477,byron center,42.8122,-85.7228,22.23,79,9,1.34,US,Sun Oct  1 10:36:18 2023
478,shakiso,5.75,38.9167,17.78,89,78,0.6,ET,Sun Oct  1 10:36:18 2023
479,manta,-0.95,-80.7333,28.88,58,75,5.14,EC,Sun Oct  1 10:33:37 2023
480,antsiranana,-12.2787,49.2917,26.42,65,20,5.14,MG,Sun Oct  1 10:36:18 2023
481,black point,-34.6187,137.8972,13.09,80,0,3.24,AU,Sun Oct  1 10:36:18 2023
482,och'amch'ire,42.7123,41.4686,20.9,82,86,2.46,GE,Sun Oct  1 10:36:19 2023
483,outjo,-20.1167,16.15,36.32,5,0,2.5,NA,Sun Oct  1 10:36:19 2023
484,vadso,70.0744,29.7487,8.09,76,75,1.54,NO,Sun Oct  1 10:36:19 2023
485,shiqian,27.5225,108.2281,21.11,91,98,1.4,CN,Sun Oct  1 10:36:19 2023
486,upata,8.0086,-62.3989,34.69,40,97,2.39,VE,Sun Oct  1 10:36:19 2023
487,matoury,4.8483,-52.3317,31.98,55,75,4.12,GF,Sun Oct  1 10:31:29 2023
488,el bagre,7.5927,-74.8086,31.46,69,87,0.51,CO,Sun Oct  1 10:36:20 2023
489,pachelma,53.2443,43.3521,18.37,49,8,3.59,RU,Sun Oct  1 10:36:20 2023
490,port blair,11.6667,92.75,27.02,89,75,1.54,IN,Sun Oct  1 10:36:20 2023
491,caucete,-31.6518,-68.2811,23.71,23,2,1.21,AR,Sun Oct  1 10:36:20 2023
492,hovd,48.0056,91.6419,9.41,46,24,2.99,MN,Sun Oct  1 10:36:21 2023
493,san julian,21.0167,-102.1667,19.12,55,6,2.87,MX,Sun Oct  1 10:36:21 2023
494,bikenibeu village,1.3673,173.1241,27.98,83,40,1.54,KI,Sun Oct  1 10:36:21 2023
495,eureka,40.8021,-124.1637,10.93,97,0,2.46,US,Sun Oct  1 10:33:14 2023
496,egilsstadir,65.2653,-14.3948,7.95,76,75,3.6,IS,Sun Oct  1 10:36:22 2023
497,plastun,44.7561,136.2939,11.16,73,18,3.13,RU,Sun Oct  1 10:36:22 2023
498,malindi,-3.2175,40.1191,27.09,69,20,7.2,KE,Sun Oct  1 10:33:25 2023
499,horta,38.5333,-28.6333,22.23,66,40,3.58,PT,Sun Oct  1 10:36:22 2023
500,alesund,62.4723,6.1549,13.33,80,20,2.06,NO,Sun Oct  1 10:36:22 2023
501,pudozh,61.8099,36.5345,11.08,88,100,4.47,RU,Sun Oct  1 10:36:22 2023
502,gympie,-26.1898,152.665,13.22,95,0,0.64,AU,Sun Oct  1 10:36:23 2023
503,nuuk,64.1835,-51.7216,1.34,86,100,5.66,GL,Sun Oct  1 10:36:23 2023
504,monywa,22.1167,95.1333,25.53,91,45,4.77,MM,Sun Oct  1 10:36:23 2023
505,lisala,2.15,21.5167,30.33,60,89,0.85,CD,Sun Oct  1 10:36:23 2023
506,revda,56.801,59.9303,8.56,82,19,2.6,RU,Sun Oct  1 10:36:23 2023
507,norfolk,42.1668,-71.2495,17.72,84,0,3.92,US,Sun Oct  1 10:36:24 2023
508,rozhyshche,50.9154,25.2691,17.98,65,100,2.0,UA,Sun Oct  1 10:36:24 2023
509,tralee,52.2704,-9.7026,16.14,77,20,5.14,IE,Sun Oct  1 10:36:24 2023
510,arta,39.1606,20.9853,25.8,55,38,2.34,GR,Sun Oct  1 10:36:24 2023
511,yanaul,56.2719,54.9309,14.62,63,10,3.92,RU,Sun Oct  1 10:36:24 2023
512,hopkinton,41.4612,-71.7776,17.7,81,20,3.6,US,Sun Oct  1 10:36:25 2023
513,strugi-krasnyye,58.2675,29.1114,14.23,60,40,4.78,RU,Sun Oct  1 10:36:25 2023
514,i-n-salah,27.1935,2.4607,38.32,14,0,7.26,DZ,Sun Oct  1 10:36:25 2023
515,sarkand,45.41,79.9186,13.94,49,52,2.25,KZ,Sun Oct  1 10:36:25 2023
516,popondetta,-8.7537,148.2534,22.99,98,97,1.26,PG,Sun Oct  1 10:36:25 2023
517,kone,-21.0595,164.8658,19.05,81,99,2.25,NC,Sun Oct  1 10:36:26 2023
518,viqueque,-8.8673,126.3658,23.59,91,14,0.5,TL,Sun Oct  1 10:36:26 2023
519,beira,-19.8436,34.8389,27.05,83,0,8.23,MZ,Sun Oct  1 10:36:26 2023
520,dzhalagash,45.0833,64.6667,18.31,38,32,3.46,KZ,Sun Oct  1 10:36:26 2023
521,ihosy,-22.4,46.1167,29.89,24,77,3.22,MG,Sun Oct  1 10:36:27 2023
522,taft,31.7471,54.2088,28.97,13,0,2.06,IR,Sun Oct  1 10:36:27 2023
523,hepo,23.4308,115.8299,24.69,97,95,1.32,CN,Sun Oct  1 10:36:27 2023
524,saint-pierre,-21.3393,55.4781,24.82,69,0,2.06,RE,Sun Oct  1 10:36:27 2023
525,tete,-16.1564,33.5867,42.05,12,20,5.14,MZ,Sun Oct  1 10:36:27 2023
526,san cristobal,7.7669,-72.225,25.1,47,99,2.99,VE,Sun Oct  1 10:36:28 2023
527,yelizovo,53.1873,158.3805,7.11,100,100,2.0,RU,Sun Oct  1 10:36:28 2023
528,patterson,37.4716,-121.1297,16.14,88,47,0.94,US,Sun Oct  1 10:31:42 2023
529,galle,6.0367,80.217,25.84,85,86,2.46,LK,Sun Oct  1 10:36:28 2023
530,simanggang,1.2472,111.4528,25.99,94,100,0.0,MY,Sun Oct  1 10:36:28 2023
531,tlaltenango de sanchez roman,21.7833,-103.3167,22.4,53,5,1.19,MX,Sun Oct  1 10:36:29 2023
532,ixtapa,20.7,-105.2,27.35,88,40,1.54,MX,Sun Oct  1 10:36:29 2023
533,bhag,29.0415,67.8239,32.54,7,0,2.74,PK,Sun Oct  1 10:36:29 2023
534,mombetsu,44.3525,143.3525,13.37,84,73,3.33,JP,Sun Oct  1 10:36:29 2023
535,wegscheid,48.6014,13.7873,20.6,43,2,2.68,DE,Sun Oct  1 10:36:29 2023
536,yeppoon,-23.1333,150.7333,18.88,74,0,3.5,AU,Sun Oct  1 10:36:29 2023
537,siret,47.95,26.0667,18.57,83,100,4.7,RO,Sun Oct  1 10:36:30 2023
538,lucapa,-8.4192,20.7447,29.47,45,99,1.67,AO,Sun Oct  1 10:36:30 2023
539,bhadrachalam,17.6667,80.8833,25.53,93,100,0.77,IN,Sun Oct  1 10:36:30 2023
540,namsos,64.4662,11.4957,10.03,87,100,2.06,NO,Sun Oct  1 10:36:30 2023
541,yemetsk,63.4721,41.7941,11.2,85,100,3.82,RU,Sun Oct  1 10:36:30 2023
542,al hufuf,25.3646,49.5653,37.19,12,0,5.14,SA,Sun Oct  1 10:36:31 2023
543,labytnangi,66.6572,66.4183,5.59,96,100,2.88,RU,Sun Oct  1 10:36:31 2023
544,ciudad lazaro cardenas,17.9583,-102.2,29.18,77,100,1.22,MX,Sun Oct  1 10:36:31 2023
545,federal,-30.9547,-58.7833,18.7,41,0,2.98,AR,Sun Oct  1 10:36:31 2023
546,qusmuryn,52.4503,64.6311,12.4,60,12,3.45,KZ,Sun Oct  1 10:36:31 2023
547,floro,61.5996,5.0328,12.04,66,75,5.14,NO,Sun Oct  1 10:36:32 2023
548,sambava,-14.2667,50.1667,23.83,84,38,2.44,MG,Sun Oct  1 10:36:32 2023
549,ust'-kut,56.7938,105.7672,-1.98,88,19,2.24,RU,Sun Oct  1 10:36:32 2023
550,rawatbhata,24.9333,75.5833,27.33,35,23,0.86,IN,Sun Oct  1 10:36:32 2023
551,nelson bay,-32.7167,152.15,20.06,88,79,10.73,AU,Sun Oct  1 10:36:33 2023
552,canchungo,12.0672,-16.0333,33.07,55,100,0.85,GW,Sun Oct  1 10:36:33 2023
553,laojunmiao,39.8333,97.7333,11.14,27,71,1.27,CN,Sun Oct  1 10:36:33 2023
554,hasaki,35.7333,140.8333,22.38,71,100,7.6,JP,Sun Oct  1 10:36:33 2023
555,sinop,41.7711,34.8709,16.31,89,100,1.8,TR,Sun Oct  1 10:36:33 2023
556,cururupu,-1.8283,-44.8683,30.02,60,100,3.79,BR,Sun Oct  1 10:36:33 2023
557,chegdomyn,51.1167,133.0167,6.29,88,99,1.79,RU,Sun Oct  1 10:32:20 2023
558,canutama,-6.5339,-64.3831,38.81,32,15,1.3,BR,Sun Oct  1 10:36:34 2023
559,san antonio oeste,-40.7319,-64.9477,18.95,33,100,7.61,AR,Sun Oct  1 10:36:34 2023
560,kimbe,-5.5502,150.1429,24.25,92,93,1.81,PG,Sun Oct  1 10:36:34 2023
561,tiszaalpar,46.8128,19.9984,21.31,53,100,4.37,HU,Sun Oct  1 10:36:34 2023
562,axim,4.8699,-2.2405,26.86,81,46,5.05,GH,Sun Oct  1 10:36:34 2023
563,ferkessedougou,9.6,-5.2,32.81,52,36,2.3,CI,Sun Oct  1 10:36:35 2023
564,letterkenny,54.95,-7.7333,17.94,70,1,5.54,IE,Sun Oct  1 10:36:35 2023
565,colonia,50.9333,6.95,27.46,54,0,3.6,DE,Sun Oct  1 10:33:27 2023
566,deming,32.2687,-107.7586,15.94,72,0,1.54,US,Sun Oct  1 10:36:35 2023
567,khabarovsk,48.4808,135.0928,9.7,93,40,4.02,RU,Sun Oct  1 10:35:50 2023
568,rong kwang,18.339,100.3174,24.07,97,96,0.73,TH,Sun Oct  1 10:36:35 2023
569,awjilah,29.1081,21.2869,29.82,29,58,5.29,LY,Sun Oct  1 10:36:36 2023
